{
"type": "FeatureCollection",
"crs": { "type": "name", "properties": { "name": "urn:ogc:def:crs:OGC:1.3:CRS84" } },
"features": [
{ "type": "Feature", "properties": { "Name": "Kalú", "description": null, "timestamp": null, "begin": null, "end": null, "altitudeMode": null, "tessellate": -1, "extrude": 0, "visibility": -1, "drawOrder": null, "icon": null }, "geometry": { "type": "Point", "coordinates": [ -84.07483, 9.9384299, 0.0 ] } },
{ "type": "Feature", "properties": { "Name": "Cervecería Traube", "description": null, "timestamp": null, "begin": null, "end": null, "altitudeMode": null, "tessellate": -1, "extrude": 0, "visibility": -1, "drawOrder": null, "icon": null }, "geometry": { "type": "Point", "coordinates": [ -84.0781009, 9.9399173, 0.0 ] } },
{ "type": "Feature", "properties": { "Name": "Antigua entrada al Zoo. Simón Bolívar", "description": null, "timestamp": null, "begin": null, "end": null, "altitudeMode": null, "tessellate": -1, "extrude": 0, "visibility": -1, "drawOrder": null, "icon": null }, "geometry": { "type": "Point", "coordinates": [ -84.0729833, 9.9380309, 0.0 ] } },
{ "type": "Feature", "properties": { "Name": "Bar El Limón\/ Juan Puertas", "description": null, "timestamp": null, "begin": null, "end": null, "altitudeMode": null, "tessellate": -1, "extrude": 0, "visibility": -1, "drawOrder": null, "icon": null }, "geometry": { "type": "Point", "coordinates": [ -84.0777844, 9.9374286, 0.0 ] } },
{ "type": "Feature", "properties": { "Name": "Bar (Pulpería) La Marinita", "description": null, "timestamp": null, "begin": null, "end": null, "altitudeMode": null, "tessellate": -1, "extrude": 0, "visibility": -1, "drawOrder": null, "icon": null }, "geometry": { "type": "Point", "coordinates": [ -84.0770817, 9.9372965, 0.0 ] } },
{ "type": "Feature", "properties": { "Name": "Bar Amón", "description": null, "timestamp": null, "begin": null, "end": null, "altitudeMode": null, "tessellate": -1, "extrude": 0, "visibility": -1, "drawOrder": null, "icon": null }, "geometry": { "type": "Point", "coordinates": [ -84.0777227, 9.9382661, 0.0 ] } },
{ "type": "Feature", "properties": { "Name": "Hostal Pangea", "description": null, "timestamp": null, "begin": null, "end": null, "altitudeMode": null, "tessellate": -1, "extrude": 0, "visibility": -1, "drawOrder": null, "icon": null }, "geometry": { "type": "Point", "coordinates": [ -84.0766566, 9.9371089, 0.0 ] } },
{ "type": "Feature", "properties": { "Name": "Antiguo Beneficio Tournon", "description": null, "timestamp": null, "begin": null, "end": null, "altitudeMode": null, "tessellate": -1, "extrude": 0, "visibility": -1, "drawOrder": null, "icon": null }, "geometry": { "type": "Point", "coordinates": [ -84.0762824, 9.9392251, 0.0 ] } },
{ "type": "Feature", "properties": { "Name": "Averiguar sobre esta casa", "description": null, "timestamp": null, "begin": null, "end": null, "altitudeMode": null, "tessellate": -1, "extrude": 0, "visibility": -1, "drawOrder": null, "icon": null }, "geometry": { "type": "Point", "coordinates": [ -84.07691, 9.9391934, 0.0 ] } },
{ "type": "Feature", "properties": { "Name": "Antiguos lavaderos", "description": null, "timestamp": null, "begin": null, "end": null, "altitudeMode": null, "tessellate": -1, "extrude": 0, "visibility": -1, "drawOrder": null, "icon": null }, "geometry": { "type": "Point", "coordinates": [ -84.0778917, 9.93927, 0.0 ] } },
{ "type": "Feature", "properties": { "Name": "Cervecería Traube", "description": null, "timestamp": null, "begin": null, "end": null, "altitudeMode": null, "tessellate": -1, "extrude": 0, "visibility": -1, "drawOrder": null, "icon": null }, "geometry": { "type": "Point", "coordinates": [ -84.0785408, 9.9391881, 0.0 ] } },
{ "type": "Feature", "properties": { "Name": "Antigua Entrada al Bolivar", "description": null, "timestamp": null, "begin": null, "end": null, "altitudeMode": null, "tessellate": -1, "extrude": 0, "visibility": -1, "drawOrder": null, "icon": null }, "geometry": { "type": "Point", "coordinates": [ -84.0740615, 9.9380626, 0.0 ] } },
{ "type": "Feature", "properties": { "Name": "Antigua Casa Anderson", "description": null, "timestamp": null, "begin": null, "end": null, "altitudeMode": null, "tessellate": -1, "extrude": 0, "visibility": -1, "drawOrder": null, "icon": null }, "geometry": { "type": "Point", "coordinates": [ -84.0756923, 9.9378645, 0.0 ] } },
{ "type": "Feature", "properties": { "Name": "Antigua Casa Julio Acosta", "description": null, "timestamp": null, "begin": null, "end": null, "altitudeMode": null, "tessellate": -1, "extrude": 0, "visibility": -1, "drawOrder": null, "icon": null }, "geometry": { "type": "Point", "coordinates": [ -84.0741768, 9.9377826, 0.0 ] } },
{ "type": "Feature", "properties": { "Name": "Antiguas vivienda derribadas por la construcción del INVU", "description": null, "timestamp": null, "begin": null, "end": null, "altitudeMode": null, "tessellate": -1, "extrude": 0, "visibility": -1, "drawOrder": null, "icon": null }, "geometry": { "type": "Point", "coordinates": [ -84.073973, 9.9367469, 0.0 ] } },
{ "type": "Feature", "properties": { "Name": "Antigua Casa Jaime Bennett", "description": null, "timestamp": null, "begin": null, "end": null, "altitudeMode": null, "tessellate": -1, "extrude": 0, "visibility": -1, "drawOrder": null, "icon": null }, "geometry": { "type": "Point", "coordinates": [ -84.0762073, 9.9386544, 0.0 ] } },
{ "type": "Feature", "properties": { "Name": "Casa Carmen Lyra", "description": null, "timestamp": null, "begin": null, "end": null, "altitudeMode": null, "tessellate": -1, "extrude": 0, "visibility": -1, "drawOrder": null, "icon": null }, "geometry": { "type": "Point", "coordinates": [ -84.0768349, 9.9370111, 0.0 ] } },
{ "type": "Feature", "properties": { "Name": "Casas \/Hotel Rey Amón", "description": null, "timestamp": null, "begin": null, "end": null, "altitudeMode": null, "tessellate": -1, "extrude": 0, "visibility": -1, "drawOrder": null, "icon": null }, "geometry": { "type": "Point", "coordinates": [ -84.0742868, 9.9366677, 0.0 ] } },
{ "type": "Feature", "properties": { "Name": "Marinita\/ Jérico Vargas", "description": null, "timestamp": null, "begin": null, "end": null, "altitudeMode": null, "tessellate": -1, "extrude": 0, "visibility": -1, "drawOrder": null, "icon": null }, "geometry": { "type": "Point", "coordinates": [ -84.0770924, 9.9372066, 0.0 ] } },
{ "type": "Feature", "properties": { "Name": "Soda Amón \/ Alicia Antillón Respostería", "description": null, "timestamp": null, "begin": null, "end": null, "altitudeMode": null, "tessellate": -1, "extrude": 0, "visibility": -1, "drawOrder": null, "icon": null }, "geometry": { "type": "Point", "coordinates": [ -84.074724, 9.9378275, 0.0 ] } }
]
}
